{
"type": "FeatureCollection",
"crs": { "type": "name", "properties": { "name": "urn:ogc:def:crs:OGC:1.3:CRS84" } },
"features": [
{ "type": "Feature", "properties": { "Name": "Brooklyn", "description": null, "timestamp": null, "begin": null, "end": null, "altitudeMode": null, "tessellate": -1, "extrude": 0, "visibility": -1, "drawOrder": null, "icon": null }, "geometry": { "type": "Point", "coordinates": [ -73.9469044, 40.6685443, 0.0 ] } },
{ "type": "Feature", "properties": { "Name": "Queens", "description": null, "timestamp": null, "begin": null, "end": null, "altitudeMode": null, "tessellate": -1, "extrude": 0, "visibility": -1, "drawOrder": null, "icon": null }, "geometry": { "type": "Point", "coordinates": [ -73.7948516, 40.7282239, 0.0 ] } },
{ "type": "Feature", "properties": { "Name": "Bronx", "description": null, "timestamp": null, "begin": null, "end": null, "altitudeMode": null, "tessellate": -1, "extrude": 0, "visibility": -1, "drawOrder": null, "icon": null }, "geometry": { "type": "Point", "coordinates": [ -73.8648268, 40.8447819, 0.0 ] } },
{ "type": "Feature", "properties": { "Name": "Manhattan", "description": null, "timestamp": null, "begin": null, "end": null, "altitudeMode": null, "tessellate": -1, "extrude": 0, "visibility": -1, "drawOrder": null, "icon": null }, "geometry": { "type": "Point", "coordinates": [ -73.9712488, 40.7830603, 0.0 ] } },
{ "type": "Feature", "properties": { "Name": "Staten Island", "description": null, "timestamp": null, "begin": null, "end": null, "altitudeMode": null, "tessellate": -1, "extrude": 0, "visibility": -1, "drawOrder": null, "icon": null }, "geometry": { "type": "Point", "coordinates": [ -74.1502007, 40.5795317, 0.0 ] } },
{ "type": "Feature", "properties": { "Name": "Flatbush - Ditmas Park", "description": "Flatbush - Ditmas Park - Midwood", "timestamp": null, "begin": null, "end": null, "altitudeMode": null, "tessellate": -1, "extrude": 0, "visibility": -1, "drawOrder": null, "icon": null }, "geometry": { "type": "Point", "coordinates": [ -73.9624327, 40.6409217, 0.0 ] } },
{ "type": "Feature", "properties": { "Name": "Bedford-Stuyvesant", "description": null, "timestamp": null, "begin": null, "end": null, "altitudeMode": null, "tessellate": -1, "extrude": 0, "visibility": -1, "drawOrder": null, "icon": null }, "geometry": { "type": "Point", "coordinates": [ -73.9417735, 40.6872176, 0.0 ] } },
{ "type": "Feature", "properties": { "Name": "Ridgewood", "description": null, "timestamp": null, "begin": null, "end": null, "altitudeMode": null, "tessellate": -1, "extrude": 0, "visibility": -1, "drawOrder": null, "icon": null }, "geometry": { "type": "Point", "coordinates": [ -73.9018292, 40.7043986, 0.0 ] } },
{ "type": "Feature", "properties": { "Name": "Hillcrest", "description": null, "timestamp": null, "begin": null, "end": null, "altitudeMode": null, "tessellate": -1, "extrude": 0, "visibility": -1, "drawOrder": null, "icon": null }, "geometry": { "type": "Point", "coordinates": [ -73.7977928, 40.7212372, 0.0 ] } },
{ "type": "Feature", "properties": { "Name": "Forest Hills", "description": null, "timestamp": null, "begin": null, "end": null, "altitudeMode": null, "tessellate": -1, "extrude": 0, "visibility": -1, "drawOrder": null, "icon": null }, "geometry": { "type": "Point", "coordinates": [ -73.8448469, 40.718106, 0.0 ] } },
{ "type": "Feature", "properties": { "Name": "Jackson Heights", "description": null, "timestamp": null, "begin": null, "end": null, "altitudeMode": null, "tessellate": -1, "extrude": 0, "visibility": -1, "drawOrder": null, "icon": null }, "geometry": { "type": "Point", "coordinates": [ -73.8830701, 40.7556818, 0.0 ] } },
{ "type": "Feature", "properties": { "Name": "Chelsea", "description": null, "timestamp": null, "begin": null, "end": null, "altitudeMode": null, "tessellate": -1, "extrude": 0, "visibility": -1, "drawOrder": null, "icon": null }, "geometry": { "type": "Point", "coordinates": [ -74.0013737, 40.7465004, 0.0 ] } },
{ "type": "Feature", "properties": { "Name": "Elmhurst", "description": null, "timestamp": null, "begin": null, "end": null, "altitudeMode": null, "tessellate": -1, "extrude": 0, "visibility": -1, "drawOrder": null, "icon": null }, "geometry": { "type": "Point", "coordinates": [ -73.8801301, 40.737975, 0.0 ] } },
{ "type": "Feature", "properties": { "Name": "South Ozone Park", "description": null, "timestamp": null, "begin": null, "end": null, "altitudeMode": null, "tessellate": -1, "extrude": 0, "visibility": -1, "drawOrder": null, "icon": null }, "geometry": { "type": "Point", "coordinates": [ -73.8124984, 40.6764003, 0.0 ] } },
{ "type": "Feature", "properties": { "Name": "Park Slope", "description": null, "timestamp": null, "begin": null, "end": null, "altitudeMode": null, "tessellate": -1, "extrude": 0, "visibility": -1, "drawOrder": null, "icon": null }, "geometry": { "type": "Point", "coordinates": [ -73.9805817, 40.6681038, 0.0 ] } },
{ "type": "Feature", "properties": { "Name": "Williamsburg", "description": null, "timestamp": null, "begin": null, "end": null, "altitudeMode": null, "tessellate": -1, "extrude": 0, "visibility": -1, "drawOrder": null, "icon": null }, "geometry": { "type": "Point", "coordinates": [ -73.9570696, 40.7081156, 0.0 ] } },
{ "type": "Feature", "properties": { "Name": "Morrisania", "description": null, "timestamp": null, "begin": null, "end": null, "altitudeMode": null, "tessellate": -1, "extrude": 0, "visibility": -1, "drawOrder": null, "icon": null }, "geometry": { "type": "Point", "coordinates": [ -73.9109977, 40.8250663, 0.0 ] } },
{ "type": "Feature", "properties": { "Name": "Mott Haven", "description": null, "timestamp": null, "begin": null, "end": null, "altitudeMode": null, "tessellate": -1, "extrude": 0, "visibility": -1, "drawOrder": null, "icon": null }, "geometry": { "type": "Point", "coordinates": [ -73.9228881, 40.8091068, 0.0 ] } },
{ "type": "Feature", "properties": { "Name": "Hunts Point", "description": null, "timestamp": null, "begin": null, "end": null, "altitudeMode": null, "tessellate": -1, "extrude": 0, "visibility": -1, "drawOrder": null, "icon": null }, "geometry": { "type": "Point", "coordinates": [ -73.8801301, 40.8120246, 0.0 ] } },
{ "type": "Feature", "properties": { "Name": "Highbridge", "description": null, "timestamp": null, "begin": null, "end": null, "altitudeMode": null, "tessellate": -1, "extrude": 0, "visibility": -1, "drawOrder": null, "icon": null }, "geometry": { "type": "Point", "coordinates": [ -73.9271644, 40.8384699, 0.0 ] } },
{ "type": "Feature", "properties": { "Name": "Fordham", "description": null, "timestamp": null, "begin": null, "end": null, "altitudeMode": null, "tessellate": -1, "extrude": 0, "visibility": -1, "drawOrder": null, "icon": null }, "geometry": { "type": "Point", "coordinates": [ -73.8984694, 40.8592667, 0.0 ] } },
{ "type": "Feature", "properties": { "Name": "Belmont", "description": null, "timestamp": null, "begin": null, "end": null, "altitudeMode": null, "tessellate": -1, "extrude": 0, "visibility": -1, "drawOrder": null, "icon": null }, "geometry": { "type": "Point", "coordinates": [ -73.88601, 40.8523198, 0.0 ] } },
{ "type": "Feature", "properties": { "Name": "Kingsbridge", "description": null, "timestamp": null, "begin": null, "end": null, "altitudeMode": null, "tessellate": -1, "extrude": 0, "visibility": -1, "drawOrder": null, "icon": null }, "geometry": { "type": "Point", "coordinates": [ -73.9051185, 40.8833912, 0.0 ] } },
{ "type": "Feature", "properties": { "Name": "Riverdale", "description": null, "timestamp": null, "begin": null, "end": null, "altitudeMode": null, "tessellate": -1, "extrude": 0, "visibility": -1, "drawOrder": null, "icon": null }, "geometry": { "type": "Point", "coordinates": [ -73.9109977, 40.8940853, 0.0 ] } },
{ "type": "Feature", "properties": { "Name": "Parkchester", "description": null, "timestamp": null, "begin": null, "end": null, "altitudeMode": null, "tessellate": -1, "extrude": 0, "visibility": -1, "drawOrder": null, "icon": null }, "geometry": { "type": "Point", "coordinates": [ -73.8566087, 40.8382522, 0.0 ] } },
{ "type": "Feature", "properties": { "Name": "Throgs Neck", "description": null, "timestamp": null, "begin": null, "end": null, "altitudeMode": null, "tessellate": -1, "extrude": 0, "visibility": -1, "drawOrder": null, "icon": null }, "geometry": { "type": "Point", "coordinates": [ -73.8213213, 40.818399, 0.0 ] } },
{ "type": "Feature", "properties": { "Name": "Morris Park", "description": null, "timestamp": null, "begin": null, "end": null, "altitudeMode": null, "tessellate": -1, "extrude": 0, "visibility": -1, "drawOrder": null, "icon": null }, "geometry": { "type": "Point", "coordinates": [ -73.8507279, 40.8522006, 0.0 ] } },
{ "type": "Feature", "properties": { "Name": "Williamsbridge", "description": null, "timestamp": null, "begin": null, "end": null, "altitudeMode": null, "tessellate": -1, "extrude": 0, "visibility": -1, "drawOrder": null, "icon": null }, "geometry": { "type": "Point", "coordinates": [ -73.8566087, 40.8776859, 0.0 ] } },
{ "type": "Feature", "properties": { "Name": "Fort Greene", "description": null, "timestamp": null, "begin": null, "end": null, "altitudeMode": null, "tessellate": -1, "extrude": 0, "visibility": -1, "drawOrder": null, "icon": null }, "geometry": { "type": "Point", "coordinates": [ -73.9741874, 40.6920638, 0.0 ] } },
{ "type": "Feature", "properties": { "Name": "Bushwick", "description": null, "timestamp": null, "begin": null, "end": null, "altitudeMode": null, "tessellate": -1, "extrude": 0, "visibility": -1, "drawOrder": null, "icon": null }, "geometry": { "type": "Point", "coordinates": [ -73.9212858, 40.6944282, 0.0 ] } },
{ "type": "Feature", "properties": { "Name": "East New York", "description": null, "timestamp": null, "begin": null, "end": null, "altitudeMode": null, "tessellate": -1, "extrude": 0, "visibility": -1, "drawOrder": null, "icon": null }, "geometry": { "type": "Point", "coordinates": [ -73.90281, 40.6758, 0.0 ] } },
{ "type": "Feature", "properties": { "Name": "Sunset Park", "description": null, "timestamp": null, "begin": null, "end": null, "altitudeMode": null, "tessellate": -1, "extrude": 0, "visibility": -1, "drawOrder": null, "icon": null }, "geometry": { "type": "Point", "coordinates": [ -74.0123851, 40.645532, 0.0 ] } },
{ "type": "Feature", "properties": { "Name": "Crown Heights", "description": null, "timestamp": null, "begin": null, "end": null, "altitudeMode": null, "tessellate": -1, "extrude": 0, "visibility": -1, "drawOrder": null, "icon": null }, "geometry": { "type": "Point", "coordinates": [ -73.9447994, 40.6681032, 0.0 ] } },
{ "type": "Feature", "properties": { "Name": "Prospect Lefferts Gardens", "description": null, "timestamp": null, "begin": null, "end": null, "altitudeMode": null, "tessellate": -1, "extrude": 0, "visibility": -1, "drawOrder": null, "icon": null }, "geometry": { "type": "Point", "coordinates": [ -73.9506774, 40.6590448, 0.0 ] } },
{ "type": "Feature", "properties": { "Name": "Bay Ridge", "description": null, "timestamp": null, "begin": null, "end": null, "altitudeMode": null, "tessellate": -1, "extrude": 0, "visibility": -1, "drawOrder": null, "icon": null }, "geometry": { "type": "Point", "coordinates": [ -74.0329499, 40.6261638, 0.0 ] } },
{ "type": "Feature", "properties": { "Name": "Bensonhurst", "description": null, "timestamp": null, "begin": null, "end": null, "altitudeMode": null, "tessellate": -1, "extrude": 0, "visibility": -1, "drawOrder": null, "icon": null }, "geometry": { "type": "Point", "coordinates": [ -73.9976946, 40.6112691, 0.0 ] } },
{ "type": "Feature", "properties": { "Name": "Borough Park", "description": null, "timestamp": null, "begin": null, "end": null, "altitudeMode": null, "tessellate": -1, "extrude": 0, "visibility": -1, "drawOrder": null, "icon": null }, "geometry": { "type": "Point", "coordinates": [ -73.9888797, 40.6323009, 0.0 ] } },
{ "type": "Feature", "properties": { "Name": "Coney Island", "description": null, "timestamp": null, "begin": null, "end": null, "altitudeMode": null, "tessellate": -1, "extrude": 0, "visibility": -1, "drawOrder": null, "icon": null }, "geometry": { "type": "Point", "coordinates": [ -73.9707016, 40.5755438, 0.0 ] } },
{ "type": "Feature", "properties": { "Name": "Sheepshead Bay", "description": null, "timestamp": null, "begin": null, "end": null, "altitudeMode": null, "tessellate": -1, "extrude": 0, "visibility": -1, "drawOrder": null, "icon": null }, "geometry": { "type": "Point", "coordinates": [ -73.9536163, 40.5975847, 0.0 ] } },
{ "type": "Feature", "properties": { "Name": "Brownsville", "description": null, "timestamp": null, "begin": null, "end": null, "altitudeMode": null, "tessellate": -1, "extrude": 0, "visibility": -1, "drawOrder": null, "icon": null }, "geometry": { "type": "Point", "coordinates": [ -73.9095279, 40.66308, 0.0 ] } },
{ "type": "Feature", "properties": { "Name": "East Flatbush", "description": null, "timestamp": null, "begin": null, "end": null, "altitudeMode": null, "tessellate": -1, "extrude": 0, "visibility": -1, "drawOrder": null, "icon": null }, "geometry": { "type": "Point", "coordinates": [ -73.9301037, 40.6437474, 0.0 ] } },
{ "type": "Feature", "properties": { "Name": "Flatlands", "description": null, "timestamp": null, "begin": null, "end": null, "altitudeMode": null, "tessellate": -1, "extrude": 0, "visibility": -1, "drawOrder": null, "icon": null }, "geometry": { "type": "Point", "coordinates": [ -73.9330429, 40.6268432, 0.0 ] } },
{ "type": "Feature", "properties": { "Name": "Financial District", "description": null, "timestamp": null, "begin": null, "end": null, "altitudeMode": null, "tessellate": -1, "extrude": 0, "visibility": -1, "drawOrder": null, "icon": null }, "geometry": { "type": "Point", "coordinates": [ -74.0112764, 40.7074909, 0.0 ] } },
{ "type": "Feature", "properties": { "Name": "Greenwich Village", "description": null, "timestamp": null, "begin": null, "end": null, "altitudeMode": null, "tessellate": -1, "extrude": 0, "visibility": -1, "drawOrder": null, "icon": null }, "geometry": { "type": "Point", "coordinates": [ -74.0027418, 40.7335719, 0.0 ] } },
{ "type": "Feature", "properties": { "Name": "Lower East Side", "description": null, "timestamp": null, "begin": null, "end": null, "altitudeMode": null, "tessellate": -1, "extrude": 0, "visibility": -1, "drawOrder": null, "icon": null }, "geometry": { "type": "Point", "coordinates": [ -73.9842724, 40.715033, 0.0 ] } },
{ "type": "Feature", "properties": { "Name": "Midtown", "description": null, "timestamp": null, "begin": null, "end": null, "altitudeMode": null, "tessellate": -1, "extrude": 0, "visibility": -1, "drawOrder": null, "icon": null }, "geometry": { "type": "Point", "coordinates": [ -73.9840195, 40.7549309, 0.0 ] } },
{ "type": "Feature", "properties": { "Name": "Stuyvesant Town", "description": null, "timestamp": null, "begin": null, "end": null, "altitudeMode": null, "tessellate": -1, "extrude": 0, "visibility": -1, "drawOrder": null, "icon": null }, "geometry": { "type": "Point", "coordinates": [ -73.9778494, 40.7316903, 0.0 ] } },
{ "type": "Feature", "properties": { "Name": "Upper East Side", "description": null, "timestamp": null, "begin": null, "end": null, "altitudeMode": null, "tessellate": -1, "extrude": 0, "visibility": -1, "drawOrder": null, "icon": null }, "geometry": { "type": "Point", "coordinates": [ -73.9565551, 40.7735649, 0.0 ] } },
{ "type": "Feature", "properties": { "Name": "Upper West Side", "description": null, "timestamp": null, "begin": null, "end": null, "altitudeMode": null, "tessellate": -1, "extrude": 0, "visibility": -1, "drawOrder": null, "icon": null }, "geometry": { "type": "Point", "coordinates": [ -73.9753676, 40.7870106, 0.0 ] } },
{ "type": "Feature", "properties": { "Name": "Morningside Heights", "description": null, "timestamp": null, "begin": null, "end": null, "altitudeMode": null, "tessellate": -1, "extrude": 0, "visibility": -1, "drawOrder": null, "icon": null }, "geometry": { "type": "Point", "coordinates": [ -73.9624327, 40.8089564, 0.0 ] } },
{ "type": "Feature", "properties": { "Name": "Harlem", "description": null, "timestamp": null, "begin": null, "end": null, "altitudeMode": null, "tessellate": -1, "extrude": 0, "visibility": -1, "drawOrder": null, "icon": null }, "geometry": { "type": "Point", "coordinates": [ -73.9464769, 40.8115504, 0.0 ] } },
{ "type": "Feature", "properties": { "Name": "Washington Heights", "description": null, "timestamp": null, "begin": null, "end": null, "altitudeMode": null, "tessellate": -1, "extrude": 0, "visibility": -1, "drawOrder": null, "icon": null }, "geometry": { "type": "Point", "coordinates": [ -73.9393554, 40.8417082, 0.0 ] } },
{ "type": "Feature", "properties": { "Name": "Astoria", "description": null, "timestamp": null, "begin": null, "end": null, "altitudeMode": null, "tessellate": -1, "extrude": 0, "visibility": -1, "drawOrder": null, "icon": null }, "geometry": { "type": "Point", "coordinates": [ -73.9234619, 40.7643574, 0.0 ] } },
{ "type": "Feature", "properties": { "Name": "Woodside", "description": null, "timestamp": null, "begin": null, "end": null, "altitudeMode": null, "tessellate": -1, "extrude": 0, "visibility": -1, "drawOrder": null, "icon": null }, "geometry": { "type": "Point", "coordinates": [ -73.9036487, 40.7512123, 0.0 ] } },
{ "type": "Feature", "properties": { "Name": "Rego Park", "description": null, "timestamp": null, "begin": null, "end": null, "altitudeMode": null, "tessellate": -1, "extrude": 0, "visibility": -1, "drawOrder": null, "icon": null }, "geometry": { "type": "Point", "coordinates": [ -73.8624893, 40.7255722, 0.0 ] } },
{ "type": "Feature", "properties": { "Name": "Kew Gardens", "description": null, "timestamp": null, "begin": null, "end": null, "altitudeMode": null, "tessellate": -1, "extrude": 0, "visibility": -1, "drawOrder": null, "icon": null }, "geometry": { "type": "Point", "coordinates": [ -73.8272029, 40.705695, 0.0 ] } },
{ "type": "Feature", "properties": { "Name": "Bayside", "description": null, "timestamp": null, "begin": null, "end": null, "altitudeMode": null, "tessellate": -1, "extrude": 0, "visibility": -1, "drawOrder": null, "icon": null }, "geometry": { "type": "Point", "coordinates": [ -73.7654367, 40.7585569, 0.0 ] } },
{ "type": "Feature", "properties": { "Name": "Jamaica", "description": null, "timestamp": null, "begin": null, "end": null, "altitudeMode": null, "tessellate": -1, "extrude": 0, "visibility": -1, "drawOrder": null, "icon": null }, "geometry": { "type": "Point", "coordinates": [ -73.7889689, 40.702677, 0.0 ] } },
{ "type": "Feature", "properties": { "Name": "Rockaway Beach", "description": null, "timestamp": null, "begin": null, "end": null, "altitudeMode": null, "tessellate": -1, "extrude": 0, "visibility": -1, "drawOrder": null, "icon": null }, "geometry": { "type": "Point", "coordinates": [ -73.8114993, 40.5867247, 0.0 ] } },
{ "type": "Feature", "properties": { "Name": "Queens Village", "description": null, "timestamp": null, "begin": null, "end": null, "altitudeMode": null, "tessellate": -1, "extrude": 0, "visibility": -1, "drawOrder": null, "icon": null }, "geometry": { "type": "Point", "coordinates": [ -73.7419017, 40.7156628, 0.0 ] } },
{ "type": "Feature", "properties": { "Name": "St. George", "description": null, "timestamp": null, "begin": null, "end": null, "altitudeMode": null, "tessellate": -1, "extrude": 0, "visibility": -1, "drawOrder": null, "icon": null }, "geometry": { "type": "Point", "coordinates": [ -74.0799469, 40.6427017, 0.0 ] } },
{ "type": "Feature", "properties": { "Name": "South Beach", "description": null, "timestamp": null, "begin": null, "end": null, "altitudeMode": null, "tessellate": -1, "extrude": 0, "visibility": -1, "drawOrder": null, "icon": null }, "geometry": { "type": "Point", "coordinates": [ -74.0738631, 40.5829024, 0.0 ] } },
{ "type": "Feature", "properties": { "Name": "Tottenville", "description": null, "timestamp": null, "begin": null, "end": null, "altitudeMode": null, "tessellate": -1, "extrude": 0, "visibility": -1, "drawOrder": null, "icon": null }, "geometry": { "type": "Point", "coordinates": [ -74.2355404, 40.5083408, 0.0 ] } },
{ "type": "Feature", "properties": { "Name": "East Harlem", "description": null, "timestamp": null, "begin": null, "end": null, "altitudeMode": null, "tessellate": -1, "extrude": 0, "visibility": -1, "drawOrder": null, "icon": null }, "geometry": { "type": "Point", "coordinates": [ -73.9389213, 40.7957399, 0.0 ] } }
]
}
